City_ID,City,Lat,Lng,Max Temp,Humidity,Cloudiness,Wind Speed,Country,Date
0,Aasiaat,68.7098,-52.8699,38.07,89,100,8.88,GL,1691688934
1,Kodinsk,58.6881,99.1844,58.23,83,78,2.71,RU,1691688934
2,Grytviken,-54.2811,-36.5092,26.28,96,95,7.65,GS,1691688935
3,Taoudenni,22.6783,-3.9836,114.1,8,8,13.0,ML,1691688935
4,Abashiri,44.0213,144.2697,67.35,95,100,4.27,JP,1691688935
5,Isafjordur,66.0755,-23.124,53.64,54,75,6.91,IS,1691688936
6,As Sulayyil,20.4607,45.5779,100.65,8,23,5.86,SA,1691688936
7,Tralee,52.2704,-9.7026,66.45,94,100,9.22,IE,1691688642
8,Margaret River,-33.95,115.0667,54.81,76,56,4.94,AU,1691688936
9,Kapuskasing,49.4169,-82.4331,62.69,77,75,6.91,CA,1691688936
10,Amursk,50.2261,136.8994,59.16,93,100,6.02,RU,1691688937
11,Jinghong,21.991,100.7341,72.57,100,100,1.45,CN,1691688937
12,Port Saint John's,-31.6229,29.5448,65.26,84,2,16.46,ZA,1691688937
13,Stanley,54.868,-1.6985,76.78,72,20,6.91,GB,1691688929
14,Xinyuan,37.3,99.0,52.72,92,99,6.38,CN,1691688937
15,Barra de Santo Antônio,-9.4047,-35.5072,79.88,67,1,8.77,BR,1691688937
16,Saint Paul Harbor,57.79,-152.4072,51.31,93,100,8.05,US,1691688802
17,Hawaiian Paradise Park,19.5933,-154.9731,73.04,99,100,6.91,US,1691688937
18,Rehoboth,-23.3167,17.0833,64.47,33,89,4.72,NA,1691688937
19,Adamstown,-25.066,-130.1015,64.09,66,55,24.11,PN,1691688938
20,Port-aux-Français,-49.35,70.2167,40.86,93,100,34.07,TF,1691688938
21,Hamilton,39.1834,-84.5333,79.77,77,75,11.5,US,1691688674
22,Vilyuysk,63.7553,121.6247,58.66,69,0,6.67,RU,1691688938
23,Waddān,29.1614,16.139,88.43,26,0,9.4,LY,1691688938
24,Cologne,50.9333,6.95,76.87,49,0,2.3,DE,1691688725
25,Bethel,41.3712,-73.414,77.47,76,98,7.92,US,1691688859
26,Bilibino,68.0546,166.4372,48.29,78,98,4.32,RU,1691688938
27,Ushuaia,-54.8,-68.3,37.06,87,100,12.66,AR,1691688697
28,Salekhard,66.53,66.6019,50.32,73,52,8.72,RU,1691688938
29,Vorgashor,67.5833,63.95,46.49,91,23,8.08,RU,1691688938
30,Klaksvík,62.2266,-6.589,54.52,84,56,13.58,FO,1691688939
31,Blackmans Bay,-43.0167,147.3167,48.33,83,99,6.33,AU,1691688939
32,Korla,41.7597,86.1469,87.13,21,0,6.11,CN,1691688939
33,Melfort,52.8667,-104.6177,53.73,87,100,11.5,CA,1691688939
34,Saint-Pathus,49.0714,2.7989,83.8,48,0,3.44,FR,1691688939
35,College,64.8569,-147.8028,58.06,98,100,3.44,US,1691688940
36,Olonkinbyen,70.9221,-8.7187,44.44,97,54,11.12,SJ,1691688940
37,Apucarana,-23.5508,-51.4608,78.93,33,2,9.64,BR,1691688940
38,Ozersk,55.7556,60.7028,61.32,80,99,8.79,RU,1691688940
39,Fale old settlement,-9.3852,-171.2468,82.87,73,97,12.21,TK,1691688940
40,Thompson,55.7435,-97.8558,66.36,48,75,3.44,CA,1691688940
41,Puerto Natales,-51.7236,-72.4875,38.95,91,100,6.4,CL,1691688940
42,Waitangi,-43.9535,-176.5597,49.82,83,76,14.83,NZ,1691688940
43,Whitehorse,60.7161,-135.0538,61.11,63,40,5.75,CA,1691688940
44,Lázaro Cárdenas,17.9583,-102.2,87.82,65,93,4.03,MX,1691688941
45,West Island,-12.1568,96.8225,76.98,88,40,14.97,CC,1691688941
46,Ribeira Grande,38.5167,-28.7,79.2,69,20,11.01,PT,1691688941
47,Lisala,2.15,21.5167,72.64,93,90,1.54,CD,1691688941
48,Pyetrykaw,52.1289,28.4921,63.55,65,100,5.12,BY,1691688941
49,Puerto Ayora,-0.7393,-90.3518,82.36,98,76,4.0,EC,1691688941
50,Crane,31.3974,-102.3501,102.15,16,1,8.16,US,1691688941
51,Atafu Village,-8.5421,-172.5159,82.62,71,100,13.42,TK,1691688941
52,Bredasdorp,-34.5322,20.0403,58.08,70,0,1.14,ZA,1691688941
53,San Antonio de Palé,-1.4014,5.6325,74.98,81,85,9.42,GQ,1691688941
54,Nova Viçosa,-17.8919,-39.3719,77.25,61,97,10.09,BR,1691688942
55,Albany,42.6001,-73.9662,75.85,81,100,1.72,US,1691688819
56,Podporozh'ye,60.9112,34.1706,60.62,67,49,3.36,RU,1691688942
57,Afif,23.9065,42.9172,92.91,8,48,9.28,SA,1691688942
58,George Town,5.4112,100.3354,80.55,86,20,5.01,MY,1691688803
59,Tadine,-21.55,167.8833,63.72,55,0,16.98,NC,1691688942
60,Longyearbyen,78.2186,15.6401,49.84,81,100,2.3,SJ,1691688926
61,Yeppoon,-23.1333,150.7333,51.58,81,0,0.65,AU,1691688942
62,Papao,-17.75,-149.55,71.28,69,26,18.77,PF,1691688942
63,Reggane,26.7158,0.1714,109.22,8,1,16.75,DZ,1691688943
64,Nouadhibou,20.931,-17.0347,73.38,83,5,21.85,MR,1691688943
65,Artesia,33.8658,-118.0831,75.87,76,100,4.61,US,1691688943
66,Karachi,24.9056,67.0822,82.22,78,75,11.5,PK,1691688790
67,Invercargill,-46.4,168.35,33.03,91,100,3.0,NZ,1691688943
68,Port Lincoln,-34.7333,135.8667,49.57,77,6,6.87,AU,1691688943
69,Ilulissat,69.2167,-51.1,48.22,66,75,5.75,GL,1691688943
70,Vallenar,-28.5708,-70.7581,73.9,24,58,5.23,CL,1691688943
71,São João da Barra,-21.6403,-41.0511,80.69,76,31,17.58,BR,1691688943
72,Chipinge,-20.1883,32.6236,56.35,72,70,1.9,ZW,1691688943
73,Haiku-Pauwela,20.9219,-156.3051,73.42,86,75,12.66,US,1691688803
74,Vilyuchinsk,52.9306,158.4028,48.47,85,46,4.25,RU,1691688944
75,Borogontsy,62.6683,131.1683,55.98,68,8,6.26,RU,1691688944
76,Nizhneudinsk,54.9076,99.0276,55.9,87,18,3.65,RU,1691688944
77,Talnakh,69.4865,88.3972,56.21,68,72,18.16,RU,1691688944
78,Puerto Baquerizo Moreno,-0.9,-89.6,79.79,74,75,11.5,EC,1691688944
79,Aland,17.5667,76.5667,80.55,68,99,9.57,IN,1691688944
80,Codrington,-38.2667,141.9667,48.83,86,100,8.12,AU,1691688944
81,Vernon,50.2581,-119.2691,73.29,53,68,3.44,CA,1691688944
82,Natal,-5.795,-35.2094,84.42,61,40,19.57,BR,1691688778
83,Kudat,6.8837,116.8477,82.33,83,20,5.75,MY,1691688945
84,Santa Helena de Goiás,-17.8136,-50.5969,93.96,18,0,8.41,BR,1691688729
85,Khāsh,28.2211,61.2158,83.77,15,11,9.19,IR,1691688945
86,New Plymouth,-39.0667,174.0833,40.8,73,8,6.4,NZ,1691688945
87,Pointe-Noire,-4.7761,11.8635,71.73,88,26,12.35,CG,1691688945
88,Port Elizabeth,-33.918,25.5701,65.1,88,0,1.14,ZA,1691688945
89,Queenstown,-31.8976,26.8753,57.76,38,0,5.79,ZA,1691688945
90,Tura,25.5198,90.2201,74.95,98,98,4.79,IN,1691688945
91,Tangalle,6.024,80.7911,78.31,89,89,9.66,LK,1691688945
92,Jamestown,42.097,-79.2353,75.02,67,75,10.36,US,1691688767
93,Tôlanaro,-25.0319,46.9987,64.47,94,75,2.3,MG,1691688945
94,Edinburgh of the Seven Seas,-37.0676,-12.3116,53.13,61,26,24.29,SH,1691688946
95,Saipan,15.1355,145.701,79.5,100,0,8.05,MP,1691688946
96,Iqaluit,63.7506,-68.5145,44.33,87,40,6.91,CA,1691688946
97,La Sarre,48.8002,-79.1996,67.03,67,71,7.45,CA,1691688946
98,Papatowai,-46.5619,169.4708,36.16,86,100,5.82,NZ,1691688946
99,Prince George,53.9166,-122.753,67.24,56,75,11.5,CA,1691688735
100,Genhe,50.7833,121.5167,55.02,96,42,2.57,CN,1691688946
101,Borkum,53.5809,6.6915,65.95,76,51,3.49,DE,1691688946
102,Arraial do Cabo,-22.9661,-42.0278,78.76,73,0,19.57,BR,1691688946
103,Westport,41.1415,-73.3579,80.42,83,100,4.61,US,1691688860
104,Hadibu,12.65,54.0333,78.26,80,32,14.97,YE,1691688946
105,Petropavlovsk-Kamchatskiy,53.0452,158.6483,46.99,100,40,8.95,RU,1691688947
106,Capinzal,-27.3436,-51.6119,75.43,70,67,3.15,BR,1691688947
107,Caraballeda,10.6112,-66.8522,86.07,70,86,9.22,VE,1691688947
108,Loango,-4.6719,11.8312,71.49,88,37,11.74,CG,1691688947
109,Buurhakaba,2.8026,44.0781,75.65,68,88,18.5,SO,1691688947
110,Crystal City,28.6775,-99.8281,96.91,41,0,10.42,US,1691688947
111,Lerwick,60.1545,-1.1494,59.0,81,32,6.49,GB,1691688947
112,Bo`ka,40.8108,69.1986,81.1,25,0,4.32,UZ,1691688947
113,Isangel,-19.55,169.2667,66.43,57,26,18.39,VU,1691688947
114,Altamont,42.2068,-121.7372,72.39,51,0,1.99,US,1691688815
115,Qaqortoq,60.7167,-46.0333,47.01,69,26,5.79,GL,1691688947
116,Tsiombe,-25.3,45.4833,62.13,69,76,7.54,MG,1691688948
117,Ridgecrest,35.6225,-117.6709,85.68,27,75,1.99,US,1691688948
118,Plastun,44.7561,136.2939,61.7,97,100,5.23,RU,1691688948
119,Lihue,21.9789,-159.3672,80.19,77,75,16.11,US,1691688948
120,Bengkulu,-3.8004,102.2655,74.8,90,34,4.05,ID,1691688948
121,Udachny,66.4167,112.4,62.46,82,98,4.92,RU,1691688948
122,Ciechocinek,52.8791,18.7951,66.67,92,93,4.05,PL,1691688835
123,Lundazi,-12.2929,33.1782,62.13,53,30,7.61,ZM,1691688948
124,Yuzhno-Kurilsk,44.0306,145.8556,67.68,97,100,13.58,RU,1691688948
125,Carnarvon,-24.8667,113.6333,66.16,85,3,4.03,AU,1691688948
126,Tamanghasset,22.785,5.5228,94.91,10,0,3.44,DZ,1691688948
127,Keflavik,64.0049,-22.5624,64.31,72,75,11.5,IS,1691688949
128,Enewetak,11.3474,162.3373,82.74,78,45,10.8,MH,1691688949
129,Bezerros,-8.2333,-35.7969,78.64,48,1,12.53,BR,1691688949
130,Saint-Pierre,-21.3393,55.4781,69.48,73,100,5.75,RE,1691688949
131,Borger,52.9233,6.7931,69.8,78,97,1.86,NL,1691688949
132,Fada,9.5667,8.3,68.45,97,100,1.66,NG,1691688949
133,San Julián,21.0167,-102.1667,75.47,45,93,2.53,MX,1691688949
134,Iskateley,67.6803,53.1512,53.46,76,4,8.1,RU,1691688949
135,Kiruna,67.8557,20.2251,56.32,88,0,5.75,SE,1691688949
136,Wailua Homesteads,22.0669,-159.378,79.59,83,75,16.11,US,1691688949
137,Porkhov,57.765,29.5561,61.74,74,80,4.0,RU,1691688950
138,Tuzantla,19.2029,-100.5668,83.79,73,93,3.24,MX,1691688950
139,Lompoc,34.6391,-120.4579,73.78,78,100,11.01,US,1691688737
140,Fort Bragg,35.139,-79.006,83.19,89,75,10.36,US,1691688950
141,Polyarny,69.1989,33.4478,68.61,63,0,10.31,RU,1691688950
142,Yellowknife,62.456,-114.3525,66.72,55,75,8.05,CA,1691688950
143,Kayangel,8.0823,134.7173,81.77,83,94,20.27,PW,1691688950
144,Tamborine Mountain,-27.9695,153.1994,52.88,92,0,3.71,AU,1691688950
145,Dolores,-36.3132,-57.6792,66.36,64,100,8.59,AR,1691688950
146,Tianshui,34.5439,105.6897,70.79,86,39,3.91,CN,1691688951
147,Klyuchi,52.2667,79.1667,65.16,84,92,6.13,RU,1691688951
148,Hermanus,-34.4187,19.2345,60.78,62,0,1.16,ZA,1691688951
149,Geiro,-6.15,36.8667,60.94,68,70,4.27,TZ,1691688951
150,Magadan,59.5667,150.8,50.72,83,22,5.57,RU,1691688951
151,Newman,37.3138,-121.0208,83.23,21,0,0.43,US,1691688951
152,Neftçala,39.3742,49.2472,83.12,64,0,9.66,AZ,1691688951
153,Susuman,62.7833,148.1667,44.69,74,2,2.35,RU,1691688951
154,Lebu,-37.6167,-73.65,51.46,85,14,13.82,CL,1691688701
155,Tazovsky,67.4667,78.7,49.01,66,2,20.94,RU,1691688951
156,Kill Devil Hills,36.0307,-75.676,87.98,65,75,13.8,US,1691688951
157,Marquette,46.5333,-87.6335,68.25,63,49,8.01,US,1691688952
158,Lā‘ie,21.6477,-157.9253,79.61,74,13,17.49,US,1691688952
159,Belmonte,-15.8631,-38.8828,77.02,64,71,8.32,BR,1691688952
160,Kayenta,36.7278,-110.2546,78.75,34,77,18.57,US,1691688952
161,Bouca,6.5105,18.2733,71.35,95,94,0.43,CF,1691688952
162,Utrik,11.2278,169.8474,82.15,69,49,13.11,MH,1691688952
163,Laojunmiao,39.8333,97.7333,67.37,50,46,3.11,CN,1691688952
164,Cave,41.8167,12.9338,79.95,52,7,5.01,IT,1691688952
165,Nagqu Prefecture,31.5,92.0,44.76,88,100,2.64,CN,1691688952
166,Ambovombe,-25.1667,46.0833,64.04,64,68,10.92,MG,1691688952
167,Fortuna,40.5982,-124.1573,62.65,98,100,0.0,US,1691688952
168,Ulaangom,49.9811,92.0667,62.13,62,6,3.31,MN,1691688953
169,Eydhafushi,5.1033,73.0708,82.99,77,99,17.6,MV,1691688958
170,Lusambo,-4.9667,23.45,82.89,29,99,2.3,CD,1691688958
171,Torata,-17.0769,-70.8433,70.66,23,0,9.57,PE,1691688958
172,Fairbanks,64.8378,-147.7164,58.08,98,100,3.44,US,1691688834
173,Maintirano,-18.0667,44.0167,74.25,79,0,12.95,MG,1691688958
174,Karasburg,-28.0167,18.75,65.66,20,16,12.68,NA,1691688958
175,Avarua,-21.2078,-159.775,73.45,88,75,16.11,CK,1691688808
176,South Hedland,-20.4089,118.5983,64.33,72,3,5.75,AU,1691688958
177,Kimbe,-5.5502,150.1429,75.61,79,80,10.56,PG,1691688959
178,Cidade Velha,14.9167,-23.6167,86.47,51,20,17.27,CV,1691688960
179,Fenghuang,27.9356,109.5996,72.59,87,0,3.02,CN,1691688960
180,Wej,26.2455,36.4525,87.75,70,0,10.36,SA,1691688960
181,Bikenibeu Village,1.3673,173.1241,80.56,89,20,2.3,KI,1691688960
182,Ilām,26.9167,87.9167,71.71,95,100,1.39,NP,1691688960
183,Flin Flon,54.7682,-101.865,60.64,72,75,6.91,CA,1691688960
184,Usogorsk,63.4106,48.6872,68.22,64,1,3.85,RU,1691688960
185,Dudinka,69.4058,86.1778,56.62,57,88,25.59,RU,1691688960
186,Daru,-9.0763,143.2092,75.69,72,38,17.38,PG,1691688961
187,Anadyr,64.75,177.4833,45.1,93,100,4.47,RU,1691688961
188,Ellsworth,44.5434,-68.4195,83.28,68,0,11.5,US,1691688961
189,Punta Arenas,-53.15,-70.9167,39.81,72,97,11.63,CL,1691688670
190,Mbanza-Ngungu,-5.25,14.8667,81.03,44,46,6.08,CD,1691688961
191,Portland,45.5234,-122.6762,74.14,55,75,5.75,US,1691688690
192,Bayanhongor,46.7167,100.1167,49.78,77,2,4.99,MN,1691688962
193,Poronaysk,49.2167,143.1167,54.91,97,100,4.05,RU,1691688962
194,Sitka,57.0531,-135.33,57.09,94,100,0.0,US,1691688798
195,Jiuquan,39.7432,98.5174,68.61,51,60,3.56,CN,1691688963
196,Gwanda,-20.9333,29.0,59.63,65,96,9.46,ZW,1691688963
197,Arvayheer,46.2639,102.775,56.01,72,54,6.11,MN,1691688964
198,Macusani,-14.0833,-70.4333,51.69,28,2,3.47,PE,1691688965
199,Tiksi,71.6872,128.8694,59.05,52,3,3.27,RU,1691688965
200,Nabire,-3.3667,135.4833,75.49,88,89,3.71,ID,1691688965
201,Afaahiti,-17.75,-149.2833,69.67,70,29,18.81,PF,1691688966
202,Antsiranana,-12.2787,49.2917,72.66,78,6,13.98,MG,1691688966
203,Stanthorpe,-28.6667,151.95,44.28,73,0,5.17,AU,1691688966
204,Balotra,25.8333,72.2333,85.51,64,56,17.83,IN,1691688966
205,Baião,-2.7906,-49.6717,89.8,46,50,5.48,BR,1691688966
206,Esmeraldas,-19.7625,-44.3139,81.64,30,0,5.37,BR,1691688967
207,Canoinhas,-26.1772,-50.39,65.66,84,82,1.5,BR,1691688967
208,Dampit,-8.2116,112.7493,64.04,97,40,0.31,ID,1691688967
209,Gadzhiyevo,69.2551,33.3362,65.16,68,0,10.83,RU,1691688967
210,Yaren,-0.5472,166.916,81.9,74,39,4.83,NR,1691688968
211,Arar,30.9753,41.0381,104.02,7,20,0.0,SA,1691688968
212,Port Mathurin,-19.6833,63.4167,73.31,77,1,16.98,MU,1691688968
213,Helena Valley West Central,46.6629,-112.0604,73.06,49,0,10.36,US,1691688968
214,Cabo San Lucas,22.8909,-109.9124,94.6,67,40,8.05,MX,1691688961
215,Sandnessjøen,66.0217,12.6316,66.52,68,40,8.05,NO,1691688787
216,Port Alfred,-33.5906,26.891,63.18,91,0,14.18,ZA,1691688969
217,Ust-Nera,64.5667,143.2,55.31,68,3,3.02,RU,1691688969
218,Dankalwa,11.7443,12.1867,75.52,76,100,8.1,NG,1691688969
219,Labuan,5.2767,115.2417,79.16,89,20,0.0,MY,1691688969
220,Chiungutwa,-10.8833,38.9833,73.31,55,58,7.38,TZ,1691688969
221,Guymon,36.6828,-101.4816,86.0,39,0,11.5,US,1691688969
222,Buk,52.3553,16.5196,68.97,57,62,10.0,PL,1691688809
223,Nikolayevsk-on-Amur,53.1406,140.73,51.49,96,100,2.68,RU,1691688970
224,Santoña,43.4439,-3.4576,79.7,71,49,5.32,ES,1691688970
225,Sena Madureira,-9.0656,-68.6569,102.04,26,10,3.0,BR,1691688970
226,Sydney,-33.8679,151.2073,53.28,63,0,12.66,AU,1691688921
227,Puerto Quijarro,-17.7833,-57.7667,104.16,14,0,10.2,BO,1691688970
228,São José da Coroa Grande,-8.8978,-35.1478,79.38,65,2,9.98,BR,1691688971
229,Palmer,42.1584,-72.3287,79.63,66,100,9.22,US,1691688879
230,Hasaki,35.7333,140.8333,81.3,88,12,8.63,JP,1691688971
231,Yelizovo,53.1873,158.3805,48.34,100,40,8.99,RU,1691688971
232,Choyr,46.3611,108.3611,64.6,74,100,8.88,MN,1691688971
233,Mikuni,36.2171,136.1519,76.91,75,0,12.3,JP,1691688971
234,Rio Grande,-32.035,-52.0986,75.31,86,98,8.81,BR,1691688972
235,Victoria Point,-27.5833,153.3,54.91,76,0,5.57,AU,1691688972
236,Mīrābād,30.4362,61.8383,93.51,17,0,25.43,AF,1691688972
237,Necochea,-38.5473,-58.7368,61.59,77,100,12.03,AR,1691688972
238,Kamuthi,9.4073,78.3734,84.06,67,100,2.91,IN,1691688972
239,Vicuña,-30.0319,-70.7081,71.76,41,100,4.83,CL,1691688674
240,San Patricio,28.017,-97.5169,97.52,33,0,15.26,US,1691688973
241,Koné,-21.0595,164.8658,55.71,72,0,5.41,NC,1691688973
242,Nezhinka,51.7676,55.3694,73.56,43,20,8.99,RU,1691688973
243,Vila Franca do Campo,37.7167,-25.4333,75.61,82,95,1.36,PT,1691688974
244,Ola,59.5833,151.2833,50.2,84,46,2.3,RU,1691688974
245,Noosa,-26.3833,153.15,55.35,80,0,10.2,AU,1691688769
246,El Calafate,-50.3408,-72.2768,38.08,96,100,3.49,AR,1691688974
247,Karonga,-9.9333,33.9333,64.9,80,8,4.25,MW,1691688974
248,Timimoun,29.2639,0.231,111.58,6,0,24.16,DZ,1691688974
249,Tamulte de las Sabanas,18.2167,-92.7833,95.09,46,0,4.32,MX,1691688975
250,Bubaque,11.2833,-15.8333,80.53,81,91,10.8,GW,1691688975
251,Yulinshi,38.2906,109.7494,79.47,65,91,4.72,CN,1691688975
252,Bodø,67.28,14.405,69.84,53,0,6.91,NO,1691688975
253,Berezovyy,51.6667,135.7,54.91,87,7,2.3,RU,1691688975
254,Swift Current,50.2834,-107.8014,68.81,64,0,13.8,CA,1691688944
255,Kununurra,-15.7667,128.7333,60.78,82,61,3.44,AU,1691688976
256,Karratha,-20.7377,116.8463,69.73,57,0,7.0,AU,1691688976
257,Penzance,50.1186,-5.5371,66.88,96,66,16.11,GB,1691688775
258,La Ronge,55.1001,-105.2842,55.65,87,100,16.11,CA,1691688976
259,Puerto Armuelles,8.2833,-82.8667,89.58,91,94,3.0,PA,1691688976
260,Čačak,43.8914,20.3497,67.6,76,74,0.87,RS,1691688977
261,Chennai,13.0878,80.2785,82.38,86,75,5.75,IN,1691688974
262,Palikir,6.9248,158.1611,77.74,94,100,3.44,FM,1691688977
263,Laguna,38.421,-121.4238,84.31,57,0,5.75,US,1691688977
264,Ancud,-41.8697,-73.8203,47.37,80,96,18.48,CL,1691688977
265,Krasnyy Chikoy,50.3643,108.7512,58.66,97,100,3.18,RU,1691688977
266,Diego de Almagro,-26.3667,-70.05,76.06,17,22,6.29,CL,1691688709
267,Barcelos,41.5388,-8.6151,83.91,62,19,6.51,PT,1691688978
268,Kanniyākumāri,8.0833,77.5667,79.36,83,89,16.6,IN,1691688978
269,Margate,51.3813,1.3862,75.69,69,31,5.99,GB,1691688978
270,Kozienice,51.5829,21.5478,68.47,50,49,4.05,PL,1691688978
271,Juneau,58.3019,-134.4197,58.21,100,100,10.36,US,1691688899
272,Nyala,12.05,24.8833,83.41,54,38,10.89,SD,1691688859
273,Juegang,32.3174,121.1855,75.34,89,0,7.23,CN,1691688978
274,Elverum,60.8819,11.5623,56.35,78,87,4.92,NO,1691688728
275,Heunghae,36.1125,129.3522,70.72,98,43,4.54,KR,1691688978
276,Nova Sintra,14.8667,-24.7167,73.08,74,16,15.61,CV,1691688979
277,Atbasar,51.8,68.3333,63.28,57,96,10.02,KZ,1691688979
278,Kemin,42.7846,75.6892,70.54,48,35,3.15,KG,1691688979
279,Carutapera,-1.195,-46.02,81.57,76,32,16.55,BR,1691688979
280,Ratnagiri,16.9833,73.3,78.51,88,48,5.23,IN,1691688979
281,Nago,26.5881,127.9761,81.03,84,100,3.89,JP,1691688979
282,Kirakira,-10.4544,161.9205,77.81,78,100,16.26,SB,1691688979
283,Uturoa,-16.7333,-151.4333,76.75,66,87,18.37,PF,1691688980
284,Wynyard,-41.0,145.7167,49.87,87,93,6.55,AU,1691688980
285,Akureyri,65.6835,-18.0878,49.93,66,40,13.8,IS,1691688980
286,Shigony,53.3875,48.6777,74.39,33,0,6.76,RU,1691688980
287,Basoko,1.2391,23.616,74.82,91,97,2.75,CD,1691688980
288,Jamiltepec,16.2833,-97.8167,89.82,48,86,4.97,MX,1691688980
289,Xigazê,29.25,88.8833,61.99,56,97,4.65,CN,1691688981
290,Enriquillo,17.9,-71.2333,92.88,50,72,9.71,DO,1691688981
291,Rongelap,11.1635,166.8941,82.27,76,88,9.22,MH,1691688981
292,Constanța,44.1833,28.65,75.88,62,100,4.07,RO,1691688981
293,Sollefteå,63.1667,17.2667,57.06,94,100,6.2,SE,1691688981
294,Nuuk,64.1835,-51.7216,47.01,81,75,8.05,GL,1691688928
295,Mersing,2.4312,103.8405,75.11,94,20,4.61,MY,1691688722
296,Merizo Village,13.2658,144.6691,79.36,96,100,21.07,GU,1691688982
297,Lhasa,29.65,91.1,62.38,62,99,3.91,CN,1691688982
298,Aykhal,66.0,111.5,58.57,86,92,4.54,RU,1691688982
299,Shenjiamen,29.9576,122.298,78.71,85,68,1.32,CN,1691688983
300,Mīnāb,27.1467,57.0801,99.18,40,40,5.37,IR,1691688984
301,Santa Sylvina,-27.8326,-61.1375,88.21,36,55,14.12,AR,1691688984
302,Kamaishi,39.2667,141.8833,76.75,95,36,7.87,JP,1691688984
303,Tamale,9.4008,-0.8393,73.78,91,100,7.9,GH,1691688984
304,Al Mijlad,11.0333,27.7333,86.65,52,93,5.77,SD,1691688984
305,Bagan Serai,5.0108,100.541,80.62,88,91,2.8,MY,1691688985
306,Malkara,40.89,26.9011,68.49,57,90,16.73,TR,1691688985
307,Nemuro,43.3236,145.575,65.57,99,100,16.58,JP,1691688985
308,Lesnoy,57.6198,63.0784,57.36,65,85,7.56,RU,1691688986
309,Safonovo,55.15,33.2167,60.96,58,87,3.89,RU,1691688881
310,Brookings,44.3114,-96.7984,77.45,78,99,1.01,US,1691688802
311,Happy Valley-Goose Bay,53.3168,-60.3315,61.11,67,75,12.66,CA,1691688986
312,Manaquiri,-3.3167,-60.35,91.89,32,12,6.02,BR,1691688986
313,Shiraz,29.6036,52.5388,81.84,34,40,6.91,IR,1691688780
314,Nadym,65.5333,72.5167,45.54,76,68,18.9,RU,1691688987
315,Weno,7.4515,151.8468,81.32,75,79,5.26,FM,1691688987
316,Río Gallegos,-51.6226,-69.2181,42.85,75,75,12.66,AR,1691688698
317,Kenai,60.5544,-151.2583,57.15,98,100,5.75,US,1691688932
318,Gamay,12.3854,125.2979,80.19,83,99,7.4,PH,1691688987
319,Lau,9.2167,11.2833,75.06,87,100,1.86,NG,1691688988
320,Tūkrah,32.5341,20.5791,79.25,63,0,11.97,LY,1691688988
321,Kuala Tungkal,-0.8167,103.4667,74.37,83,76,2.93,ID,1691688988
322,Kailua-Kona,19.6406,-155.9956,80.56,66,0,5.75,US,1691688968
323,Al Ḩawātah,13.4167,34.6333,80.73,69,91,6.85,SD,1691688988
324,Tynda,55.1667,124.7167,59.95,70,96,2.48,RU,1691688988
325,Argos,37.6333,22.7333,81.79,66,58,1.3,GR,1691688988
326,Al Jawf,29.5,38.75,93.43,19,4,12.28,SA,1691688989
327,Ardabil,38.2498,48.2933,71.15,46,0,6.91,IR,1691688989
328,Tianpeng,30.9866,103.9393,81.21,85,90,4.27,CN,1691688989
329,East London,-33.0153,27.9116,65.34,88,0,11.5,ZA,1691688989
330,Creel,27.75,-107.6333,79.39,29,41,7.63,MX,1691688989
331,Dhidhdhoo,6.8833,73.1,83.07,76,99,17.38,MV,1691688989
332,Katsuren-haebaru,26.3369,127.8719,82.42,88,40,2.3,JP,1691688989
333,Abong Mbang,3.9833,13.1833,70.12,95,93,1.79,CM,1691688990
334,Chonchi,-42.6128,-73.8092,49.21,90,100,8.97,CL,1691688990
335,East End,34.5507,-92.341,89.67,80,50,1.01,US,1691688990
336,Fonte Boa,-2.4959,-66.2662,92.12,47,46,0.51,BR,1691688990
337,Codajás,-3.8367,-62.0569,98.51,31,16,4.0,BR,1691688990
338,Karmaskaly,54.3709,56.1837,69.71,49,21,6.44,RU,1691688990
339,Mukalla,14.5425,49.1242,89.24,55,100,1.39,YE,1691688879
340,Mokopane,-24.1944,29.0097,56.14,49,2,7.65,ZA,1691688991
341,Glendive,47.1053,-104.7125,78.76,44,0,13.8,US,1691688799
342,Kongsvinger,60.1905,11.9977,63.27,47,91,3.31,NO,1691688991
343,Ketchikan,55.3422,-131.6461,59.47,94,100,10.36,US,1691688798
344,Lakatoro,-16.0999,167.4164,67.57,67,66,14.45,VU,1691688991
345,Tobelo,1.7284,128.0095,78.15,83,67,8.5,ID,1691688991
346,Meldola,44.1283,12.0625,82.06,53,0,10.36,IT,1691688992
347,Taltal,-25.4,-70.4833,61.07,74,54,8.93,CL,1691688992
348,Naryan-Mar,67.6713,53.087,53.06,76,4,8.03,RU,1691688992
349,Aral,40.5156,81.2636,87.26,25,0,25.48,CN,1691688992
350,Pingxiang,27.6167,113.85,77.02,94,90,3.02,CN,1691688993
351,Flying Fish Cove,-10.4217,105.6791,76.68,88,100,11.5,CX,1691688993
352,Kpandu,6.9954,0.2931,76.53,81,77,2.82,GH,1691688993
353,Badger,64.8,-147.5333,57.97,96,100,3.44,US,1691688993
354,Puerto Aisén,-45.4,-72.7,44.64,100,100,11.5,CL,1691688993
355,Ponta Delgada,37.7333,-25.6667,75.92,88,40,6.91,PT,1691688993
356,Pugachev,52.0133,48.8025,76.51,33,0,8.23,RU,1691688993
357,Howrah,22.5892,88.3103,84.2,89,75,3.44,IN,1691688909
358,Grants Pass,42.439,-123.3284,79.03,59,0,6.91,US,1691688856
359,Richards Bay,-28.783,32.0377,62.46,77,0,8.16,ZA,1691688994
360,Södra Sandby,56.5667,16.6167,60.66,83,100,13.65,SE,1691688994
361,Pavlodar,52.3,76.95,67.8,77,75,20.13,KZ,1691688994
362,Batikent,39.9683,32.7308,90.97,31,40,8.05,TR,1691688994
363,Ngerengere,-6.75,38.1167,71.65,65,63,3.91,TZ,1691688995
364,Alihe,50.5667,123.7167,56.71,98,2,2.42,CN,1691688995
365,Kuala Terengganu,5.3302,103.1408,80.55,89,20,3.44,MY,1691688995
366,Al Hazm,16.1641,44.7769,90.21,16,55,4.83,YE,1691688995
367,Santa Ana de Yacuma,-13.75,-65.4333,94.95,46,40,11.5,BO,1691688995
368,Fort St. John,56.2499,-120.8529,55.29,94,100,6.91,CA,1691688840
369,Yen Vinh,18.6667,105.6667,82.49,71,100,4.97,VN,1691688995
370,Zhangye,38.9342,100.4517,69.49,64,100,10.58,CN,1691688995
371,Harper,4.375,-7.7169,76.21,81,95,9.55,LR,1691688996
372,Opuwo,-18.0607,13.84,69.96,24,3,8.1,NA,1691688996
373,Masterton,-40.9597,175.6575,40.08,98,96,4.9,NZ,1691688996
374,Porto-Novo,6.4965,2.6036,78.62,76,48,9.15,BJ,1691688996
375,Bijie,27.3125,105.2942,66.52,88,13,4.65,CN,1691688996
376,Ad Dabbah,18.05,30.95,99.66,27,40,13.15,SD,1691688996
377,Alice Springs,-23.7,133.8833,47.75,53,0,1.14,AU,1691688996
378,Téra,14.0078,0.7531,89.76,50,51,14.29,NE,1691688996
379,Severo-Yeniseyskiy,60.3725,93.0408,53.73,93,100,4.54,RU,1691688996
380,Bom Jesus,-9.0744,-44.3586,97.68,16,0,8.12,BR,1691688996
381,Toliara,-23.35,43.6667,67.24,63,14,16.33,MG,1691688776
382,Zhympīty,50.2536,52.595,79.72,30,0,7.83,KZ,1691688997
383,Vadsø,70.0744,29.7487,79.68,64,0,12.66,NO,1691688997
384,St. John's,47.5649,-52.7093,69.67,96,100,12.66,CA,1691688798
385,Ad Dawādimī,24.5077,44.3924,97.95,9,26,10.94,SA,1691688997
386,Pinheiral,-22.5128,-44.0006,87.15,36,0,3.4,BR,1691688997
387,Pärnu,58.3859,24.4971,62.69,72,20,6.91,EE,1691688997
388,São Gabriel da Cachoeira,-0.1303,-67.0892,76.8,88,40,6.91,BR,1691688997
389,Coalcomán de Vázquez Pallares,18.7833,-103.15,80.96,65,90,1.45,MX,1691688997
390,Mount Gambier,-37.8333,140.7667,48.2,89,94,5.23,AU,1691688997
391,Kavalerovo,44.2661,135.0572,62.98,100,100,2.84,RU,1691688998
392,Wichian Buri,15.6578,101.106,78.44,85,88,3.02,TH,1691688998
393,Al Ghayzah,16.2079,52.176,78.8,88,74,10.27,YE,1691688998
394,Frontera,26.9333,-101.45,98.33,42,31,5.99,MX,1691688998
395,Chibougamau,49.9168,-74.3659,71.22,60,75,4.61,CA,1691688998
396,Praia da Vitória,38.7333,-27.0667,77.25,73,75,7.49,PT,1691688942
397,Carnot,4.9409,15.8665,72.03,94,86,1.01,CF,1691688998
398,Bathsheba,13.2167,-59.5167,88.41,74,40,16.11,BB,1691688998
399,Mahibadhoo,3.7833,72.9667,83.34,76,100,16.96,MV,1691688998
400,Kizil-Arvat,38.9764,56.2757,93.11,18,0,3.4,TM,1691688999
401,Luanco,43.6152,-5.7934,82.47,64,26,8.9,ES,1691688999
402,Sola,-13.8833,167.55,73.47,71,100,27.74,VU,1691688999
403,Acaraú,-2.8856,-40.12,86.32,53,46,19.91,BR,1691688737
404,Eastham,41.8301,-69.9739,83.95,65,0,6.91,US,1691688865
405,Kingston,17.997,-76.7936,92.35,69,20,21.85,JM,1691688921
406,Minas de Marcona,-15.2119,-75.1103,64.92,59,24,16.87,PE,1691688999
407,Hengchun,22.0042,120.7439,81.37,86,72,11.12,TW,1691688999
408,Columbus,39.9612,-82.9988,79.88,71,75,9.22,US,1691688832
409,Mayna,54.1135,47.6231,71.49,38,16,2.57,RU,1691688999
410,Atamanovka,51.93,113.63,63.03,98,100,3.42,RU,1691688999
411,Oodweyne,9.4092,45.064,78.48,46,77,15.17,SO,1691688999
412,Ghormach,35.7306,63.7826,84.6,22,0,6.06,AF,1691689000
413,Ta`ū,-14.2336,-169.5144,81.21,78,99,15.01,AS,1691689000
414,Reçani,31.2846,-4.2688,107.65,7,18,10.38,MA,1691689000
415,Itoman,26.1247,127.6694,82.42,89,100,1.14,JP,1691689000
416,Kruisfontein,-34.0033,24.7314,62.89,24,0,9.62,ZA,1691689000
417,Magnitogorsk,53.4186,59.0472,66.76,70,54,10.22,RU,1691689000
418,Oranjemund,-28.55,16.4333,66.45,52,12,6.71,NA,1691689000
419,Bayramaly,37.6185,62.1671,89.35,19,0,8.72,TM,1691689000
420,Central,30.5544,-91.0368,97.97,50,75,17.27,US,1691688880
421,Hithadhoo,-0.6,73.0833,82.38,76,90,9.51,MV,1691689000
422,Corfu,39.62,19.9197,82.18,54,20,9.22,GR,1691689001
423,Saldanha,-33.0117,17.9442,62.65,70,0,7.47,ZA,1691689001
424,Lata,40.1629,-8.3327,81.91,50,12,8.95,PT,1691689001
425,Pizarro,4.9533,-77.366,82.06,79,90,10.33,CO,1691689001
426,Yashkul',46.1711,45.3435,87.71,35,36,14.09,RU,1691689001
427,Plettenberg Bay,-34.0527,23.3716,73.47,23,0,7.99,ZA,1691689001
428,Exu,-7.5119,-39.7242,86.97,34,71,11.9,BR,1691689001
429,Qā’en,33.7265,59.1844,76.26,22,0,22.93,IR,1691689001
430,Kristiansund,63.1115,7.732,53.65,93,75,4.61,NO,1691689001
431,Saint-Joseph,-21.3667,55.6167,68.38,81,25,2.24,RE,1691689001
432,Huntsville,34.7304,-86.5861,83.26,78,20,11.5,US,1691688831
433,Dvurechensk,56.5982,61.0953,61.18,88,81,5.23,RU,1691689002
434,Tazacorte,28.629,-17.9293,81.57,61,0,17.27,ES,1691689002
435,Caucayá,-0.1934,-74.7819,94.14,43,30,1.66,CO,1691689002
436,Mengcheng Chengguanzhen,33.2661,116.566,76.87,74,33,3.62,CN,1691689002
437,Isoka,-10.1606,32.6335,62.65,53,39,6.55,ZM,1691689002
438,Lospalos,-8.5186,127.0025,68.52,87,61,5.88,TL,1691689002
439,Rāhuri,19.3833,74.65,76.62,74,32,9.33,IN,1691689002
440,Shingū,33.7333,135.9833,75.69,99,71,3.87,JP,1691689002
441,Venice,27.0998,-82.4543,96.06,69,0,10.36,US,1691688871
442,Bam,29.106,58.357,90.37,14,4,12.77,IR,1691689003
443,Ivdel',60.6911,60.4206,53.11,81,71,4.7,RU,1691689003
444,Touros,-5.1989,-35.4608,78.19,80,20,23.13,BR,1691689003
445,Sorsk,54.0033,90.2467,56.05,70,42,6.71,RU,1691689003
446,La Passe,45.5549,-0.8967,79.03,75,75,12.86,FR,1691689003
447,Bamboo Flat,11.7,92.7167,82.36,82,100,17.09,IN,1691689003
448,Yamada,39.4667,141.95,75.0,96,24,7.56,JP,1691689003
449,Sisimiut,66.9395,-53.6735,45.07,87,100,7.11,GL,1691689003
450,Nantucket,41.2835,-70.0995,82.45,64,0,13.8,US,1691688738
451,Kerikeri,-35.2268,173.9474,45.91,92,33,7.27,NZ,1691689003
452,Manturovo,58.3353,44.7619,69.24,67,14,3.85,RU,1691689004
453,Saint-Louis,16.3333,-15.0,94.64,30,36,18.1,SN,1691689004
454,Ormara,25.2088,64.6357,81.23,81,82,14.27,PK,1691689004
455,Sydney,-33.8679,151.2073,53.28,63,0,12.66,AU,1691688813
456,Gampengrejo,-7.7667,112.0167,71.13,89,54,11.25,ID,1691689004
457,Vuktyl,63.8567,57.3094,58.14,66,14,7.52,RU,1691689004
458,New Norfolk,-42.7826,147.0587,49.5,96,100,2.73,AU,1691689004
459,Lauro de Freitas,-12.8944,-38.3272,82.42,57,40,12.66,BR,1691688880
460,Barentu,15.1139,37.5928,73.26,79,100,13.18,ER,1691689004
461,Bétaré Oya,5.6,14.0833,69.1,96,100,3.58,CM,1691689004
462,Cadale,2.7603,46.3222,76.08,82,63,17.02,SO,1691689004
463,Rawlins,41.7911,-107.2387,74.35,28,40,19.57,US,1691689005
464,Kunri,25.1785,69.5691,85.82,62,59,18.16,PK,1691689005
465,Robertson,36.5167,-86.8667,78.67,90,75,6.91,US,1691689005
466,Mount Isa,-20.7333,139.5,47.97,81,2,0.0,AU,1691689005
467,Wainwright,52.839,-110.8572,70.34,47,73,17.69,CA,1691688851
468,Kiama,-34.6833,150.8667,53.01,72,0,5.01,AU,1691689005
469,Peniche,39.3558,-9.3811,81.28,74,2,11.86,PT,1691689005
470,Irymple,-34.25,142.1667,41.09,87,2,6.29,AU,1691689005
471,Pisco,-13.7,-76.2167,69.85,73,100,12.66,PE,1691689005
472,Las Vegas,36.175,-115.1372,89.62,51,20,17.27,US,1691688729
473,Cândido Mendes,-1.4467,-45.7167,84.79,65,53,10.83,BR,1691689005
474,Waingapu,-9.6567,120.2641,75.27,80,98,9.93,ID,1691689006
475,Tyukhtet,56.5389,89.3011,54.72,95,75,4.81,RU,1691689006
476,Paracuru,-3.41,-39.0306,81.1,55,45,16.71,BR,1691689006
477,Fada N'gourma,12.0622,0.3578,75.72,83,84,13.06,BF,1691689006
478,Florø,61.5996,5.0328,51.87,93,75,9.22,NO,1691689007
479,Puerto Lempira,15.2667,-83.7667,91.54,58,40,9.22,HN,1691689007
480,Kawardha,22.0167,81.25,78.48,81,14,5.95,IN,1691688842
481,Arkhangelsk,64.5401,40.5433,68.79,73,2,3.44,RU,1691689007
482,Pamanukan,-6.2842,107.8106,73.87,84,12,3.27,ID,1691689008
483,Manggar,-2.8833,108.2667,78.39,76,3,8.23,ID,1691689008
484,Hobyo,5.3505,48.5268,76.5,84,82,26.24,SO,1691689008
485,Castillos,-34.1667,-53.8333,64.36,78,96,9.01,UY,1691689008
486,Cururupu,-1.8283,-44.8683,86.61,56,54,7.7,BR,1691689008
487,Skellefteå,64.7507,20.9528,64.99,92,0,11.5,SE,1691689008
488,Sinabang,2.4803,96.3801,77.61,86,100,3.87,ID,1691689008
489,Kafir Qala,34.6667,61.0667,87.24,16,0,24.25,AF,1691689008
490,Katsuura,35.1333,140.3,78.71,89,2,8.99,JP,1691689008
491,Oulad Teïma,30.3947,-9.209,103.28,10,53,9.66,MA,1691689008
492,Ouallam,14.3188,2.0866,90.73,46,85,8.52,NE,1691689008
493,Sibolga,1.7427,98.7792,76.69,89,100,3.29,ID,1691689009
494,Puerto Deseado,-47.7503,-65.8938,55.24,51,1,21.21,AR,1691689009
495,Mumford,5.2618,-0.759,75.7,83,61,12.06,GH,1691689009
496,Shimoda,34.6667,138.95,78.39,89,31,11.3,JP,1691689009
497,Tionk Essil,12.7856,-16.5217,91.45,65,85,11.68,SN,1691689009
498,Guilin,25.2819,110.2864,77.11,91,82,1.48,CN,1691689009
499,Pandan,14.0453,124.1694,84.56,75,99,5.91,PH,1691689009
500,Turpan,42.9333,89.1667,97.77,17,0,2.55,CN,1691689009
501,Bedelē,8.456,36.353,56.39,95,100,2.68,ET,1691689009
502,Villa Gesell,-37.2639,-56.973,64.06,79,100,11.39,AR,1691689009
503,Inírida,3.8653,-67.9239,85.57,78,65,2.33,CO,1691689010
504,Pathein,16.7833,94.7333,78.89,90,99,5.97,MM,1691689010
505,Mont-Laurier,46.5501,-75.4993,65.82,67,96,8.66,CA,1691689010
506,Swakopmund,-22.6833,14.5333,59.85,86,82,3.0,NA,1691689010
507,Palāsa,18.7667,84.4167,82.45,80,92,2.42,IN,1691689010
508,Saint-Philippe,-21.3585,55.7679,69.39,90,62,2.98,RE,1691689010
509,Burlington,39.8835,-74.6413,80.58,85,40,10.36,US,1691688805
510,Nishinoomote,30.7333,131.0,80.96,84,100,2.13,JP,1691688866
511,Naze,28.3667,129.4833,76.12,88,100,8.97,JP,1691689010
512,Lincoln City,44.9582,-124.0179,71.87,74,53,4.0,US,1691689010
513,Chukhloma,58.7525,42.6825,72.5,64,71,5.14,RU,1691689010
514,Puerto El Triunfo,13.2833,-88.55,95.86,61,98,4.74,SV,1691689011
515,Nizhniy Kuranakh,58.8353,125.4869,62.37,68,71,6.17,RU,1691689011
516,Pacasmayo,-7.4006,-79.5714,74.44,67,50,15.84,PE,1691689011
517,Egilsstadir,65.2653,-14.3948,51.71,71,75,14.97,IS,1691689011
518,Åkrehamn,59.2667,5.1833,59.0,71,40,8.05,NO,1691689011
519,Northam,51.0333,-4.2167,70.61,82,87,11.9,GB,1691689011
520,Hilo,19.7297,-155.09,73.26,100,100,6.91,US,1691688968
521,Odesa,46.4775,30.7326,75.67,45,100,14.56,UA,1691689011
522,Narragansett,41.4501,-71.4495,82.22,68,75,14.97,US,1691689011
523,South Yuba City,39.1166,-121.6391,90.99,48,0,4.61,US,1691689011
524,Tanout,14.9709,8.8879,85.96,50,100,10.58,NE,1691689012
525,Kushiro,42.975,144.3747,67.84,99,99,10.94,JP,1691689012
526,Wagoner,35.9595,-95.3694,89.46,53,2,2.8,US,1691689012
527,Burao,9.5221,45.5336,79.09,45,79,18.28,SO,1691689012
528,East Ballina,-28.8667,153.5833,55.8,76,0,3.18,AU,1691689012
529,Hūn,29.1268,15.9477,88.29,25,0,8.63,LY,1691689012
530,Tobruk,32.0836,23.9764,79.23,67,1,12.35,LY,1691688797
531,Kosh-Agach,50.0,88.6667,53.15,55,3,3.94,RU,1691689012
532,Nogliki,51.8333,143.1667,53.31,97,100,6.69,RU,1691689012
533,Emerald,-23.5333,148.1667,49.33,79,0,1.05,AU,1691689012
534,Pacocha,-17.5833,-71.3333,66.34,77,0,8.05,PE,1691689012
535,Wesseling,50.8333,6.9833,75.51,47,0,2.3,DE,1691689013
536,Kolonia Town,6.964,158.206,78.8,94,100,3.44,FM,1691689013
537,Patigi,8.7333,5.75,77.45,89,73,3.13,NG,1691689013
538,Rémire-Montjoly,4.9167,-52.2667,89.64,58,20,11.5,GF,1691689013
539,Mount Pearl,47.5166,-52.7813,68.85,96,100,12.66,CA,1691689013
540,Benghazi,32.1167,20.0667,79.97,62,0,14.85,LY,1691689013
541,Al Fuwayliq,26.4432,43.2534,94.17,9,31,12.21,SA,1691689013
542,Al Lagowa,11.4,29.1333,78.55,68,80,2.15,SD,1691689013
543,Mili,6.0815,171.735,82.38,77,67,10.2,MH,1691689013
544,Sompeta,18.9333,84.6,83.1,73,92,4.43,IN,1691689013
545,Aras-asan,8.8908,126.3033,77.5,89,100,6.67,PH,1691689014
546,Mugia,43.1041,-9.2179,73.9,85,65,9.95,ES,1691689014
547,Scarborough,54.2797,-0.4044,76.57,72,100,8.99,GB,1691689014
548,Lüderitz,-26.6481,15.1594,61.83,64,54,4.61,NA,1691689014
549,Thunder Bay,48.4001,-89.3168,66.18,55,75,11.5,CA,1691688918
550,San Mariano,7.5,126.0,73.09,94,100,4.38,PH,1691689014
551,Kalmunai,7.4167,81.8167,81.3,80,96,5.48,LK,1691689014
552,Quellón,-43.1167,-73.6167,48.45,81,100,19.57,CL,1691689014
553,Carolina Beach,34.0352,-77.8936,89.65,83,100,12.68,US,1691688918
554,Lunino,53.5918,45.2271,72.97,53,29,3.96,RU,1691689014
555,Valparaíso,-33.0393,-71.6273,62.24,82,75,10.36,CL,1691688910
556,Jayapura,-2.5333,140.7,76.39,93,81,5.61,ID,1691689014
557,Ocós,14.5094,-92.1933,91.58,60,25,8.05,GT,1691689014
558,Bonthe,7.5264,-12.505,76.96,82,100,13.33,SL,1691689015
559,Severnoye,56.3491,78.3619,48.06,95,50,6.42,RU,1691689015
560,Port Augusta,-32.5,137.7667,46.15,82,0,4.21,AU,1691689015
561,Leh,34.1667,77.5833,69.31,36,21,5.99,IN,1691689015
562,Vikhorevka,56.1201,101.1636,58.59,85,55,3.2,RU,1691689015
563,Tual,-5.6667,132.75,78.48,79,75,20.51,ID,1691689015
564,Sabha,27.0377,14.4283,88.9,20,0,9.69,LY,1691689015
565,Fernie,49.5,-115.0687,68.09,50,65,3.87,CA,1691689015
566,Obo,5.3998,26.4869,71.02,90,100,3.04,CF,1691689015
567,Alofi,-19.0595,-169.9187,69.69,94,100,0.0,NU,1691689015
568,Cabedelo,-6.9811,-34.8339,84.87,74,27,17.6,BR,1691689016
569,Miðvágur,62.0511,-7.1939,54.43,94,100,14.97,FO,1691689016
570,Nuku'alofa,-21.1333,-175.2,70.14,100,75,3.44,TO,1691689016
571,Boa Vista,2.8197,-60.6733,91.38,52,40,10.36,BR,1691689016
572,Mossamedes,-15.1961,12.1522,63.01,85,21,13.47,AO,1691689016
573,Saint-Paul,-21.0096,55.2707,69.91,91,25,2.13,RE,1691689016
574,Medicine Hat,50.0501,-110.6683,74.71,46,40,12.66,CA,1691688987
575,Eduardo Castex,-35.915,-64.2945,67.59,37,63,10.18,AR,1691689016
576,Norderney,53.7,7.15,65.98,77,50,5.48,DE,1691689016
577,Aguilar de Campoo,42.7945,-4.2589,74.26,55,48,13.82,ES,1691688873
578,Huicheng,23.0385,116.2899,80.33,87,100,6.76,CN,1691689016
579,Narrabri,-30.3167,149.7833,43.52,75,0,4.72,AU,1691689017
